{"type": "FeatureCollection", "features": [{"type": "Feature", "properties": {"marker-color": "#00FA21", "last visit": "2012-06-20", "location": "Halifax, CAN"}, "geometry": {"type": "Point", "coordinates": [-63.573, 44.646]}}, {"type": "Feature", "properties": {"marker-color": "#00FA21", "last visit": "2015-06-27", "location": "Thunder Bay, CAN"}, "geometry": {"type": "Point", "coordinates": [-89.25, 48.382]}}, {"type": "Feature", "properties": {"marker-color": "#F2FA00", "last visit": "2008-01-01", "location": "Kyoto, JPN"}, "geometry": {"type": "Point", "coordinates": [135.75385, 35.02107]}}, {"type": "Feature", "properties": {"marker-color": "#00FA21", "last visit": "2016-06-04", "location": "Portland, USA"}, "geometry": {"type": "Point", "coordinates": [-122.676, 45.523]}}, {"type": "Feature", "properties": {"marker-color": "#F2FA00", "last visit": "2008-01-01", "location": "Osaka, JPN"}, "geometry": {"type": "Point", "coordinates": [135.50218, 34.693740000000005]}}, {"type": "Feature", "properties": {"marker-color": "#00FA21", "last visit": "2015-07-01", "location": "Nelson, CAN"}, "geometry": {"type": "Point", "coordinates": [-117.286, 49.5]}}, {"type": "Feature", "properties": {"marker-color": "#00FA21", "last visit": "2015-06-24", "location": "Guelph, CAN"}, "geometry": {"type": "Point", "coordinates": [-80.256, 43.54600000000001]}}, {"type": "Feature", "properties": {"marker-color": "#00FA21", "last visit": "2010-07-31", "location": "Edinburgh, GBR"}, "geometry": {"type": "Point", "coordinates": [-3.196, 55.952]}}, {"type": "Feature", "properties": {"marker-color": "#00FA21", "last visit": "2011-05-01", "location": "Monterey, USA"}, "geometry": {"type": "Point", "coordinates": [-121.895, 36.6]}}, {"type": "Feature", "properties": {"marker-color": "#00FA21", "last visit": "2015-11-28", "location": "Boise, USA"}, "geometry": {"type": "Point", "coordinates": [-116.1996, 43.6177]}}, {"type": "Feature", "properties": {"marker-color": "#00FA21", "last visit": "2016-02-15", "location": "Ucluelet, CAN"}, "geometry": {"type": "Point", "coordinates": [-125.546345, 48.9416]}}, {"type": "Feature", "properties": {"marker-color": "#00FA21", "last visit": "2014-06-24", "location": "Kelowna, CAN"}, "geometry": {"type": "Point", "coordinates": [-119.486, 49.883]}}, {"type": "Feature", "properties": {"marker-color": "#F2FA00", "last visit": "2006-07-01", "location": "Shoreham-by-Sea, GBR"}, "geometry": {"type": "Point", "coordinates": [-0.27399999999999997, 50.833999999999996]}}, {"type": "Feature", "properties": {"marker-color": "#F2FA00", "last visit": "2001-07-01", "location": "Kentville, CAN"}, "geometry": {"type": "Point", "coordinates": [-64.49600000000001, 45.077]}}, {"type": "Feature", "properties": {"marker-color": "#F2FA00", "last visit": "2008-01-01", "location": "Hiroshima, JPN"}, "geometry": {"type": "Point", "coordinates": [132.45937, 35.02107]}}, {"type": "Feature", "properties": {"marker-color": "#00FA21", "last visit": "2012-01-01", "location": "Niagara Falls, CAN"}, "geometry": {"type": "Point", "coordinates": [-79.0784, 43.0792]}}, {"type": "Feature", "properties": {"marker-color": "#005CFA", "last visit": "2007-03-01", "location": "Addison, USA"}, "geometry": {"type": "Point", "coordinates": [-96.829, 32.961999999999996]}}, {"type": "Feature", "properties": {"marker-color": "#005CFA", "last visit": "2009-03-07", "location": "Charlottesville, USA"}, "geometry": {"type": "Point", "coordinates": [-78.477, 38.029]}}, {"type": "Feature", "properties": {"marker-color": "#00FA21", "last visit": "2015-11-08", "location": "Toronto, CAN"}, "geometry": {"type": "Point", "coordinates": [-79.416, 43.7]}}, {"type": "Feature", "properties": {"marker-color": "#00FA21", "last visit": "2013-03-18", "location": "Santa Clara, USA"}, "geometry": {"type": "Point", "coordinates": [-121.955, 37.354]}}, {"type": "Feature", "properties": {"marker-color": "#005CFA", "last visit": "2008-04-07", "location": "Brussels, BEL"}, "geometry": {"type": "Point", "coordinates": [4.349, 50.85]}}, {"type": "Feature", "properties": {"marker-color": "#00FA21", "last visit": "2015-06-25", "location": "Sudbury, CAN"}, "geometry": {"type": "Point", "coordinates": [-80.99, 46.49]}}, {"type": "Feature", "properties": {"marker-color": "#00FA21", "last visit": "2015-04-16", "location": "Montr\u00e9al, CAN"}, "geometry": {"type": "Point", "coordinates": [-73.58800000000001, 45.50899999999999]}}, {"type": "Feature", "properties": {"marker-color": "#00FA21", "last visit": "2014-08-04", "location": "St. John's, CAN"}, "geometry": {"type": "Point", "coordinates": [-52.708999999999996, 47.565]}}, {"type": "Feature", "properties": {"marker-color": "#00FA21", "last visit": "2015-06-30", "location": "Calgary, CAN"}, "geometry": {"type": "Point", "coordinates": [-114.085, 51.05]}}, {"type": "Feature", "properties": {"marker-color": "#00FA21", "last visit": "2012-05-20", "location": "Kingston, CAN"}, "geometry": {"type": "Point", "coordinates": [-76.48100000000001, 44.23]}}, {"type": "Feature", "properties": {"marker-color": "#005CFA", "last visit": "2002-01-01", "location": "Oxford, GBR"}, "geometry": {"type": "Point", "coordinates": [-1.256, 51.751999999999995]}}, {"type": "Feature", "properties": {"marker-color": "#F2FA00", "last visit": "2010-01-01", "location": "Paris, FRA"}, "geometry": {"type": "Point", "coordinates": [2.349, 48.853]}}, {"type": "Feature", "properties": {"marker-color": "#00FA21", "last visit": "2013-10-11", "location": "Mountain View, USA"}, "geometry": {"type": "Point", "coordinates": [-122.084, 37.385999999999996]}}, {"type": "Feature", "properties": {"marker-color": "#F2FA00", "last visit": "2008-01-01", "location": "Nara, JPN"}, "geometry": {"type": "Point", "coordinates": [135.80485, 34.68505]}}, {"type": "Feature", "properties": {"marker-color": "#F2FA00", "last visit": "2005-07-01", "location": "Edmonton, CAN"}, "geometry": {"type": "Point", "coordinates": [-113.469, 53.55]}}, {"type": "Feature", "properties": {"marker-color": "#005CFA", "last visit": "2003-07-01", "location": "Yosemite Valley, USA"}, "geometry": {"type": "Point", "coordinates": [-119.57799999999999, 37.741]}}, {"type": "Feature", "properties": {"marker-color": "#00FA21", "last visit": "2010-07-28", "location": "Stirling, GBR"}, "geometry": {"type": "Point", "coordinates": [-3.937, 56.119]}}, {"type": "Feature", "properties": {"marker-color": "#00FA21", "last visit": "2015-11-14", "location": "New Haven, USA"}, "geometry": {"type": "Point", "coordinates": [-72.92649, 41.311209999999996]}}, {"type": "Feature", "properties": {"marker-color": "#00FA21", "last visit": "2012-03-06", "location": "Anaheim, USA"}, "geometry": {"type": "Point", "coordinates": [-117.915, 33.835]}}, {"type": "Feature", "properties": {"marker-color": "#005CFA", "last visit": "2003-07-01", "location": "Mammoth Lakes, USA"}, "geometry": {"type": "Point", "coordinates": [-118.97200000000001, 37.649]}}, {"type": "Feature", "properties": {"marker-color": "#F2FA00", "last visit": "2008-01-01", "location": "Takasaki, JPN"}, "geometry": {"type": "Point", "coordinates": [138.88578, 36.3410271]}}, {"type": "Feature", "properties": {"marker-color": "#00FA21", "last visit": "2015-06-28", "location": "Winnipeg, CAN"}, "geometry": {"type": "Point", "coordinates": [-97.147, 49.88399999999999]}}, {"type": "Feature", "properties": {"marker-color": "#F2FA00", "last visit": "2001-07-01", "location": "Summerside, CAN"}, "geometry": {"type": "Point", "coordinates": [-63.788000000000004, 46.396]}}, {"type": "Feature", "properties": {"marker-color": "#00FA21", "last visit": "2015-04-07", "location": "Montclair, USA"}, "geometry": {"type": "Point", "coordinates": [-74.211, 40.826]}}, {"type": "Feature", "properties": {"marker-color": "#00FA21", "last visit": "2014-06-20", "location": "Manning Park, CAN"}, "geometry": {"type": "Point", "coordinates": [-120.78299999999999, 49.067]}}, {"type": "Feature", "properties": {"marker-color": "#00FA21", "last visit": "2016-02-16", "location": "Tofino, CAN"}, "geometry": {"type": "Point", "coordinates": [-125.906618, 49.152984000000004]}}, {"type": "Feature", "properties": {"marker-color": "#00FA21", "last visit": "2011-07-04", "location": "Bowen Island, CAN"}, "geometry": {"type": "Point", "coordinates": [-123.366, 49.378]}}, {"type": "Feature", "properties": {"marker-color": "#00FA21", "last visit": "2014-06-25", "location": "Monck Park, CAN"}, "geometry": {"type": "Point", "coordinates": [-120.53299999999999, 50.177]}}, {"type": "Feature", "properties": {"marker-color": "#00FA21", "last visit": "2012-06-18", "location": "Qu\u00e9bec, CAN"}, "geometry": {"type": "Point", "coordinates": [-71.215, 46.812]}}, {"type": "Feature", "properties": {"marker-color": "#00FA21", "last visit": "2016-05-21", "location": "Austin, USA"}, "geometry": {"type": "Point", "coordinates": [-97.743, 30.267]}}, {"type": "Feature", "properties": {"marker-color": "#005CFA", "last visit": "2008-03-20", "location": "Rosemont, USA"}, "geometry": {"type": "Point", "coordinates": [-87.885, 41.995]}}, {"type": "Feature", "properties": {"marker-color": "#00FA21", "last visit": "2015-09-08", "location": "Langley, USA"}, "geometry": {"type": "Point", "coordinates": [-122.406, 48.04]}}, {"type": "Feature", "properties": {"marker-color": "#F2FA00", "last visit": "2010-01-01", "location": "Geneva, CHE"}, "geometry": {"type": "Point", "coordinates": [6.146, 46.202]}}, {"type": "Feature", "properties": {"marker-color": "#F2FA00", "last visit": "2010-01-01", "location": "Liverpool, GBR"}, "geometry": {"type": "Point", "coordinates": [-2.978, 53.411]}}, {"type": "Feature", "properties": {"marker-color": "#F2FA00", "last visit": "2008-01-01", "location": "Tokyo, JPN"}, "geometry": {"type": "Point", "coordinates": [139.69171, 35.6895]}}, {"type": "Feature", "properties": {"marker-color": "#00FA21", "last visit": "2010-07-26", "location": "Lancaster, GBR"}, "geometry": {"type": "Point", "coordinates": [-2.8, 54.04600000000001]}}, {"type": "Feature", "properties": {"marker-color": "#00FA21", "last visit": "2011-08-16", "location": "Atlanta, USA"}, "geometry": {"type": "Point", "coordinates": [-84.38799999999999, 33.749]}}, {"type": "Feature", "properties": {"marker-color": "#F2FA00", "last visit": "2001-07-01", "location": "Digby, CAN"}, "geometry": {"type": "Point", "coordinates": [-65.759, 44.622]}}, {"type": "Feature", "properties": {"marker-color": "#00FA21", "last visit": "2015-06-26", "location": "Wawa, CAN"}, "geometry": {"type": "Point", "coordinates": [-84.78299999999999, 47.983000000000004]}}, {"type": "Feature", "properties": {"marker-color": "#00FA21", "last visit": "2009-08-01", "location": "Las Vegas, USA"}, "geometry": {"type": "Point", "coordinates": [-115.137, 36.175]}}, {"type": "Feature", "properties": {"marker-color": "#00FA21", "last visit": "2015-06-29", "location": "Regina, CAN"}, "geometry": {"type": "Point", "coordinates": [-104.618, 50.45]}}, {"type": "Feature", "properties": {"marker-color": "#00FA21", "last visit": "2015-11-15", "location": "Union City, USA"}, "geometry": {"type": "Point", "coordinates": [-74.024, 40.78]}}, {"type": "Feature", "properties": {"marker-color": "#00FA21", "last visit": "2012-10-09", "location": "Chicago, USA"}, "geometry": {"type": "Point", "coordinates": [-87.65, 41.85]}}, {"type": "Feature", "properties": {"marker-color": "#005CFA", "last visit": "2002-01-01", "location": "York, GBR"}, "geometry": {"type": "Point", "coordinates": [-1.083, 53.958]}}, {"type": "Feature", "properties": {"marker-color": "#F2FA00", "last visit": "2001-07-01", "location": "Annapolis Royal, CAN"}, "geometry": {"type": "Point", "coordinates": [-65.518, 44.743]}}, {"type": "Feature", "properties": {"marker-color": "#005CFA", "last visit": "2012-11-19", "location": "Buenos Aires, ARG"}, "geometry": {"type": "Point", "coordinates": [-58.376999999999995, -34.613]}}, {"type": "Feature", "properties": {"marker-color": "#00FA21", "last visit": "2012-06-21", "location": "Charlottetown, CAN"}, "geometry": {"type": "Point", "coordinates": [-63.126999999999995, 46.235]}}, {"type": "Feature", "properties": {"marker-color": "#F2FA00", "last visit": "2001-07-01", "location": "Shediac, CAN"}, "geometry": {"type": "Point", "coordinates": [-64.541, 46.22]}}, {"type": "Feature", "properties": {"marker-color": "#00FA21", "last visit": "2016-08-02", "location": "Victoria, CAN"}, "geometry": {"type": "Point", "coordinates": [-123.3703, 48.4195]}}, {"type": "Feature", "properties": {"marker-color": "#00FA21", "last visit": "2014-06-22", "location": "Osoyoos, CAN"}, "geometry": {"type": "Point", "coordinates": [-119.455, 49.015]}}, {"type": "Feature", "properties": {"marker-color": "#005CFA", "last visit": "2016-09-10", "location": "Palo Alto, USA"}, "geometry": {"type": "Point", "coordinates": [-122.17023999999999, 37.42716]}}, {"type": "Feature", "properties": {"marker-color": "#00FA21", "last visit": "2012-06-22", "location": "Sackville, CAN"}, "geometry": {"type": "Point", "coordinates": [-64.385, 45.919]}}, {"type": "Feature", "properties": {"marker-color": "#00FA21", "last visit": "2013-05-22", "location": "Ottawa, CAN"}, "geometry": {"type": "Point", "coordinates": [-75.7057, 45.422]}}, {"type": "Feature", "properties": {"marker-color": "#F2FA00", "last visit": "2010-01-01", "location": "Manchester, GBR"}, "geometry": {"type": "Point", "coordinates": [-2.237, 53.481]}}, {"type": "Feature", "properties": {"marker-color": "#00FA21", "last visit": "2011-10-30", "location": "Roseville, USA"}, "geometry": {"type": "Point", "coordinates": [-121.288, 38.751999999999995]}}, {"type": "Feature", "properties": {"marker-color": "#00FA21", "last visit": "2012-06-19", "location": "Fredericton, CAN"}, "geometry": {"type": "Point", "coordinates": [-66.666, 45.945]}}, {"type": "Feature", "properties": {"marker-color": "#F2FA00", "last visit": "2004-07-01", "location": "Atlantic City, USA"}, "geometry": {"type": "Point", "coordinates": [-74.423, 39.364000000000004]}}, {"type": "Feature", "properties": {"marker-color": "#00FA21", "last visit": "2006-07-01", "location": "Brighton, GBR"}, "geometry": {"type": "Point", "coordinates": [-0.139, 50.828]}}, {"type": "Feature", "properties": {"marker-color": "#00FA21", "last visit": "2013-08-05", "location": "Ann Arbor, USA"}, "geometry": {"type": "Point", "coordinates": [-83.741, 42.278]}}, {"type": "Feature", "properties": {"marker-color": "#F2FA00", "last visit": "2010-01-01", "location": "Prague, CZE"}, "geometry": {"type": "Point", "coordinates": [14.421, 50.088]}}, {"type": "Feature", "properties": {"marker-color": "#F2FA00", "last visit": "2001-07-01", "location": "Moncton, CAN"}, "geometry": {"type": "Point", "coordinates": [-64.796, 46.095]}}, {"type": "Feature", "properties": {"marker-color": "#00FA21", "last visit": "2015-11-30", "location": "Meridian, USA"}, "geometry": {"type": "Point", "coordinates": [-116.39200000000001, 43.611999999999995]}}, {"type": "Feature", "properties": {"marker-color": "#00FA21", "last visit": "2010-01-01", "location": "London, GBR"}, "geometry": {"type": "Point", "coordinates": [-0.126, 51.50899999999999]}}, {"type": "Feature", "properties": {"marker-color": "#00FA21", "last visit": "2010-07-29", "location": "Glasgow, GBR"}, "geometry": {"type": "Point", "coordinates": [-4.258, 55.865]}}, {"type": "Feature", "properties": {"marker-color": "#005CFA", "last visit": "2010-07-24", "location": "Birmingham, GBR"}, "geometry": {"type": "Point", "coordinates": [-1.9, 52.481]}}, {"type": "Feature", "properties": {"marker-color": "#00FA21", "last visit": "2015-01-02", "location": "Vancouver, CAN"}, "geometry": {"type": "Point", "coordinates": [-123.119, 49.25]}}, {"type": "Feature", "properties": {"marker-color": "#F2FA00", "last visit": "2008-01-01", "location": "Annaka, JPN"}, "geometry": {"type": "Point", "coordinates": [138.9, 36.31667]}}, {"type": "Feature", "properties": {"marker-color": "#F2FA00", "last visit": "2010-02-01", "location": "Havana, CUB"}, "geometry": {"type": "Point", "coordinates": [-82.383, 23.133000000000003]}}, {"type": "Feature", "properties": {"marker-color": "#00FA21", "last visit": "2015-06-30", "location": "Creston, CAN"}, "geometry": {"type": "Point", "coordinates": [-116.50200000000001, 49.1]}}, {"type": "Feature", "properties": {"marker-color": "#F2FA00", "last visit": "2010-01-01", "location": "Barcelona, ESP"}, "geometry": {"type": "Point", "coordinates": [2.1590000000000003, 41.388999999999996]}}, {"type": "Feature", "properties": {"marker-color": "#00FA21", "last visit": "2014-08-25", "location": "Seattle, USA"}, "geometry": {"type": "Point", "coordinates": [-122.33200000000001, 47.606]}}, {"type": "Feature", "properties": {"marker-color": "#F2FA00", "last visit": "2001-07-01", "location": "Yarmouth, CAN"}, "geometry": {"type": "Point", "coordinates": [-66.116, 43.833]}}, {"type": "Feature", "properties": {"marker-color": "#F2FA00", "last visit": "2006-07-01", "location": "Ely, GBR"}, "geometry": {"type": "Point", "coordinates": [0.262, 52.4]}}, {"type": "Feature", "properties": {"marker-color": "#005CFA", "last visit": "2005-03-01", "location": "Washington, D.C., USA"}, "geometry": {"type": "Point", "coordinates": [-77.036, 38.895]}}, {"type": "Feature", "properties": {"marker-color": "#005CFA", "last visit": "2010-05-01", "location": "Raleigh, USA"}, "geometry": {"type": "Point", "coordinates": [-78.639, 35.772]}}, {"type": "Feature", "properties": {"marker-color": "#005CFA", "last visit": "2016-10-05", "location": "Redmond, USA"}, "geometry": {"type": "Point", "coordinates": [-122.12200000000001, 47.674]}}, {"type": "Feature", "properties": {"marker-color": "#F2FA00", "last visit": "2010-01-01", "location": "Grenoble, FRA"}, "geometry": {"type": "Point", "coordinates": [5.7170000000000005, 45.167]}}, {"type": "Feature", "properties": {"marker-color": "#00FA21", "last visit": "2015-11-11", "location": "New York, USA"}, "geometry": {"type": "Point", "coordinates": [-74.006, 40.714]}}, {"type": "Feature", "properties": {"marker-color": "#005CFA", "last visit": "2008-04-01", "location": "Ghent, BEL"}, "geometry": {"type": "Point", "coordinates": [3.717, 51.05]}}, {"type": "Feature", "properties": {"marker-color": "#00FA21", "last visit": "2016-09-11", "location": "San Francisco, USA"}, "geometry": {"type": "Point", "coordinates": [-122.419, 37.775]}}, {"type": "Feature", "properties": {"marker-color": "#F2FA00", "last visit": "2001-07-01", "location": "Amherst, CAN"}, "geometry": {"type": "Point", "coordinates": [-64.199, 45.833]}}, {"type": "Feature", "properties": {"marker-color": "#005CFA", "last visit": "2008-07-25", "location": "Pittsburgh, USA"}, "geometry": {"type": "Point", "coordinates": [-79.99600000000001, 40.441]}}, {"type": "Feature", "properties": {"marker-color": "#00FA21", "last visit": "2013-05-10", "location": "Punta Cana, DOM"}, "geometry": {"type": "Point", "coordinates": [-68.404, 18.582]}}]}