{"features": [{"geometry": {"coordinates": [-119.57799999999999, 37.741], "type": "Point"}, "properties": {"city": "Yosemite Valley, USA", "last visit": "2003-07-01", "marker-color": "#005CFA", "work": false}, "type": "Feature"}, {"geometry": {"coordinates": [-0.126, 51.50899999999999], "type": "Point"}, "properties": {"city": "London, GBR", "last visit": "2010-07-18", "marker-color": "#00FA21", "work": false}, "type": "Feature"}, {"geometry": {"coordinates": [-0.139, 50.828], "type": "Point"}, "properties": {"city": "Brighton, GBR", "last visit": "2006-07-01", "marker-color": "#00FA21", "work": false}, "type": "Feature"}, {"geometry": {"coordinates": [-1.083, 53.958], "type": "Point"}, "properties": {"city": "York, GBR", "last visit": "2002-01-01", "marker-color": "#005CFA", "work": false}, "type": "Feature"}, {"geometry": {"coordinates": [-3.196, 55.952], "type": "Point"}, "properties": {"city": "Edinburgh, GBR", "last visit": "2010-07-31", "marker-color": "#00FA21", "work": false}, "type": "Feature"}, {"geometry": {"coordinates": [-1.256, 51.751999999999995], "type": "Point"}, "properties": {"city": "Oxford, GBR", "last visit": "2002-01-01", "marker-color": "#005CFA", "work": false}, "type": "Feature"}, {"geometry": {"coordinates": [-115.137, 36.175], "type": "Point"}, "properties": {"city": "Las Vegas, USA", "last visit": "2009-08-01", "marker-color": "#00FA21", "work": false}, "type": "Feature"}, {"geometry": {"coordinates": [138.9, 36.31667], "type": "Point"}, "properties": {"city": "Annaka, JPN", "last visit": "2008-01-01", "marker-color": "#F2FA00", "work": false}, "type": "Feature"}, {"geometry": {"coordinates": [132.45937, 35.02107], "type": "Point"}, "properties": {"city": "Hiroshima, JPN", "last visit": "2008-01-01", "marker-color": "#F2FA00", "work": false}, "type": "Feature"}, {"geometry": {"coordinates": [135.75385, 35.02107], "type": "Point"}, "properties": {"city": "Kyoto, JPN", "last visit": "2008-01-01", "marker-color": "#F2FA00", "work": false}, "type": "Feature"}, {"geometry": {"coordinates": [135.80485, 34.68505], "type": "Point"}, "properties": {"city": "Nara, JPN", "last visit": "2008-01-01", "marker-color": "#F2FA00", "work": false}, "type": "Feature"}, {"geometry": {"coordinates": [135.50218, 34.693740000000005], "type": "Point"}, "properties": {"city": "Osaka, JPN", "last visit": "2008-01-01", "marker-color": "#F2FA00", "work": false}, "type": "Feature"}, {"geometry": {"coordinates": [138.88578, 36.3410271], "type": "Point"}, "properties": {"city": "Takasaki, JPN", "last visit": "2008-01-01", "marker-color": "#F2FA00", "work": false}, "type": "Feature"}, {"geometry": {"coordinates": [139.69171, 35.6895], "type": "Point"}, "properties": {"city": "Tokyo, JPN", "last visit": "2008-01-01", "marker-color": "#F2FA00", "work": false}, "type": "Feature"}, {"geometry": {"coordinates": [-117.915, 33.835], "type": "Point"}, "properties": {"city": "Anaheim, USA", "last visit": "2012-03-06", "marker-color": "#00FA21", "work": false}, "type": "Feature"}, {"geometry": {"coordinates": [-64.385, 45.919], "type": "Point"}, "properties": {"city": "Sackville, CAN", "last visit": "2012-06-22", "marker-color": "#00FA21", "work": false}, "type": "Feature"}, {"geometry": {"coordinates": [-63.788000000000004, 46.396], "type": "Point"}, "properties": {"city": "Summerside, CAN", "last visit": "2001-07-01", "marker-color": "#F2FA00", "work": false}, "type": "Feature"}, {"geometry": {"coordinates": [-66.116, 43.833], "type": "Point"}, "properties": {"city": "Yarmouth, CAN", "last visit": "2018-06-30", "marker-color": "#00FA21", "work": false}, "type": "Feature"}, {"geometry": {"coordinates": [-65.518, 44.743], "type": "Point"}, "properties": {"city": "Annapolis Royal, CAN", "last visit": "2018-06-29", "marker-color": "#00FA21", "work": false}, "type": "Feature"}, {"geometry": {"coordinates": [-64.199, 45.833], "type": "Point"}, "properties": {"city": "Amherst, CAN", "last visit": "2001-07-01", "marker-color": "#F2FA00", "work": false}, "type": "Feature"}, {"geometry": {"coordinates": [-65.759, 44.622], "type": "Point"}, "properties": {"city": "Digby, CAN", "last visit": "2018-06-29", "marker-color": "#00FA21", "work": false}, "type": "Feature"}, {"geometry": {"coordinates": [-64.49600000000001, 45.077], "type": "Point"}, "properties": {"city": "Kentville, CAN", "last visit": "2001-07-01", "marker-color": "#F2FA00", "work": false}, "type": "Feature"}, {"geometry": {"coordinates": [-64.796, 46.095], "type": "Point"}, "properties": {"city": "Moncton, CAN", "last visit": "2001-07-01", "marker-color": "#F2FA00", "work": false}, "type": "Feature"}, {"geometry": {"coordinates": [-64.541, 46.22], "type": "Point"}, "properties": {"city": "Shediac, CAN", "last visit": "2001-07-01", "marker-color": "#F2FA00", "work": false}, "type": "Feature"}, {"geometry": {"coordinates": [-87.65, 41.85], "type": "Point"}, "properties": {"city": "Chicago, USA", "last visit": "2012-10-09", "marker-color": "#00FA21", "work": false}, "type": "Feature"}, {"geometry": {"coordinates": [-77.036, 38.895], "type": "Point"}, "properties": {"city": "Washington, D.C., USA", "last visit": "2005-03-01", "marker-color": "#005CFA", "work": false}, "type": "Feature"}, {"geometry": {"coordinates": [-118.97200000000001, 37.649], "type": "Point"}, "properties": {"city": "Mammoth Lakes, USA", "last visit": "2003-07-01", "marker-color": "#005CFA", "work": false}, "type": "Feature"}, {"geometry": {"coordinates": [-74.211, 40.826], "type": "Point"}, "properties": {"city": "Montclair, USA", "last visit": "2017-08-27", "marker-color": "#00FA21", "work": false}, "type": "Feature"}, {"geometry": {"coordinates": [-74.006, 40.714], "type": "Point"}, "properties": {"city": "New York, USA", "last visit": "2017-08-26", "marker-color": "#00FA21", "work": false}, "type": "Feature"}, {"geometry": {"coordinates": [-74.423, 39.364000000000004], "type": "Point"}, "properties": {"city": "Atlantic City, USA", "last visit": "2004-07-01", "marker-color": "#F2FA00", "work": false}, "type": "Feature"}, {"geometry": {"coordinates": [-114.085, 51.05], "type": "Point"}, "properties": {"city": "Calgary, CAN", "last visit": "2015-06-30", "marker-color": "#00FA21", "work": false}, "type": "Feature"}, {"geometry": {"coordinates": [-113.469, 53.55], "type": "Point"}, "properties": {"city": "Edmonton, CAN", "last visit": "2005-07-01", "marker-color": "#F2FA00", "work": false}, "type": "Feature"}, {"geometry": {"coordinates": [-96.829, 32.961999999999996], "type": "Point"}, "properties": {"city": "Addison, USA", "last visit": "2007-03-01", "marker-color": "#005CFA", "work": false}, "type": "Feature"}, {"geometry": {"coordinates": [0.262, 52.4], "type": "Point"}, "properties": {"city": "Ely, GBR", "last visit": "2006-07-01", "marker-color": "#F2FA00", "work": false}, "type": "Feature"}, {"geometry": {"coordinates": [-0.27399999999999997, 50.833999999999996], "type": "Point"}, "properties": {"city": "Shoreham-by-Sea, GBR", "last visit": "2006-07-01", "marker-color": "#F2FA00", "work": false}, "type": "Feature"}, {"geometry": {"coordinates": [-87.885, 41.995], "type": "Point"}, "properties": {"city": "Rosemont, USA", "last visit": "2008-03-20", "marker-color": "#005CFA", "work": false}, "type": "Feature"}, {"geometry": {"coordinates": [4.349, 50.85], "type": "Point"}, "properties": {"city": "Brussels, BEL", "last visit": "2008-04-07", "marker-color": "#005CFA", "work": true}, "type": "Feature"}, {"geometry": {"coordinates": [3.717, 51.05], "type": "Point"}, "properties": {"city": "Ghent, BEL", "last visit": "2008-04-01", "marker-color": "#005CFA", "work": true}, "type": "Feature"}, {"geometry": {"coordinates": [-122.33200000000001, 47.606], "type": "Point"}, "properties": {"city": "Seattle, USA", "last visit": "2014-08-25", "marker-color": "#00FA21", "work": false}, "type": "Feature"}, {"geometry": {"coordinates": [-79.99600000000001, 40.441], "type": "Point"}, "properties": {"city": "Pittsburgh, USA", "last visit": "2008-07-25", "marker-color": "#005CFA", "work": true}, "type": "Feature"}, {"geometry": {"coordinates": [-78.477, 38.029], "type": "Point"}, "properties": {"city": "Charlottesville, USA", "last visit": "2009-03-07", "marker-color": "#005CFA", "work": true}, "type": "Feature"}, {"geometry": {"coordinates": [-122.406, 48.04], "type": "Point"}, "properties": {"city": "Langley, USA", "last visit": "2018-08-07", "marker-color": "#00FA21", "work": false}, "type": "Feature"}, {"geometry": {"coordinates": [-116.39200000000001, 43.611999999999995], "type": "Point"}, "properties": {"city": "Meridian, USA", "last visit": "2015-11-30", "marker-color": "#00FA21", "work": false}, "type": "Feature"}, {"geometry": {"coordinates": [-123.3703, 48.4195], "type": "Point"}, "properties": {"city": "Victoria, CAN", "last visit": "2016-08-02", "marker-color": "#00FA21", "work": false}, "type": "Feature"}, {"geometry": {"coordinates": [-121.288, 38.751999999999995], "type": "Point"}, "properties": {"city": "Roseville, USA", "last visit": "2011-10-30", "marker-color": "#00FA21", "work": false}, "type": "Feature"}, {"geometry": {"coordinates": [-82.383, 23.133000000000003], "type": "Point"}, "properties": {"city": "Havana, CUB", "last visit": "2010-02-01", "marker-color": "#F2FA00", "work": false}, "type": "Feature"}, {"geometry": {"coordinates": [-84.38799999999999, 33.749], "type": "Point"}, "properties": {"city": "Atlanta, USA", "last visit": "2011-08-16", "marker-color": "#00FA21", "work": false}, "type": "Feature"}, {"geometry": {"coordinates": [-78.639, 35.772], "type": "Point"}, "properties": {"city": "Raleigh, USA", "last visit": "2010-05-01", "marker-color": "#005CFA", "work": true}, "type": "Feature"}, {"geometry": {"coordinates": [-122.419, 37.775], "type": "Point"}, "properties": {"city": "San Francisco, USA", "last visit": "2016-09-11", "marker-color": "#00FA21", "work": false}, "type": "Feature"}, {"geometry": {"coordinates": [-2.237, 53.481], "type": "Point"}, "properties": {"city": "Manchester, GBR", "last visit": "2010-06-27", "marker-color": "#F2FA00", "work": false}, "type": "Feature"}, {"geometry": {"coordinates": [-122.084, 37.385999999999996], "type": "Point"}, "properties": {"city": "Mountain View, USA", "last visit": "2013-10-11", "marker-color": "#00FA21", "work": true}, "type": "Feature"}, {"geometry": {"coordinates": [-2.978, 53.411], "type": "Point"}, "properties": {"city": "Liverpool, GBR", "last visit": "2010-06-26", "marker-color": "#F2FA00", "work": false}, "type": "Feature"}, {"geometry": {"coordinates": [14.421, 50.088], "type": "Point"}, "properties": {"city": "Prague, CZE", "last visit": "2010-07-02", "marker-color": "#F2FA00", "work": false}, "type": "Feature"}, {"geometry": {"coordinates": [2.1590000000000003, 41.388999999999996], "type": "Point"}, "properties": {"city": "Barcelona, ESP", "last visit": "2010-07-08", "marker-color": "#F2FA00", "work": false}, "type": "Feature"}, {"geometry": {"coordinates": [5.7170000000000005, 45.167], "type": "Point"}, "properties": {"city": "Grenoble, FRA", "last visit": "2010-07-13", "marker-color": "#F2FA00", "work": false}, "type": "Feature"}, {"geometry": {"coordinates": [6.146, 46.202], "type": "Point"}, "properties": {"city": "Geneva, CHE", "last visit": "2010-07-12", "marker-color": "#F2FA00", "work": false}, "type": "Feature"}, {"geometry": {"coordinates": [2.349, 48.853], "type": "Point"}, "properties": {"city": "Paris, FRA", "last visit": "2010-07-17", "marker-color": "#F2FA00", "work": false}, "type": "Feature"}, {"geometry": {"coordinates": [-1.9, 52.481], "type": "Point"}, "properties": {"city": "Birmingham, GBR", "last visit": "2010-07-24", "marker-color": "#005CFA", "work": false}, "type": "Feature"}, {"geometry": {"coordinates": [-2.8, 54.04600000000001], "type": "Point"}, "properties": {"city": "Lancaster, GBR", "last visit": "2010-07-26", "marker-color": "#00FA21", "work": false}, "type": "Feature"}, {"geometry": {"coordinates": [-4.258, 55.865], "type": "Point"}, "properties": {"city": "Glasgow, GBR", "last visit": "2010-07-29", "marker-color": "#00FA21", "work": false}, "type": "Feature"}, {"geometry": {"coordinates": [-3.937, 56.119], "type": "Point"}, "properties": {"city": "Stirling, GBR", "last visit": "2010-07-28", "marker-color": "#00FA21", "work": false}, "type": "Feature"}, {"geometry": {"coordinates": [-121.895, 36.6], "type": "Point"}, "properties": {"city": "Monterey, USA", "last visit": "2011-05-01", "marker-color": "#00FA21", "work": false}, "type": "Feature"}, {"geometry": {"coordinates": [-123.119, 49.25], "type": "Point"}, "properties": {"city": "Vancouver, CAN", "last visit": "2015-01-02", "marker-color": "#00FA21", "work": false}, "type": "Feature"}, {"geometry": {"coordinates": [-123.366, 49.378], "type": "Point"}, "properties": {"city": "Bowen Island, CAN", "last visit": "2011-07-04", "marker-color": "#00FA21", "work": false}, "type": "Feature"}, {"geometry": {"coordinates": [-122.676, 45.523], "type": "Point"}, "properties": {"city": "Portland, USA", "last visit": "2017-05-23", "marker-color": "#00FA21", "work": false}, "type": "Feature"}, {"geometry": {"coordinates": [-79.416, 43.7], "type": "Point"}, "properties": {"city": "Toronto, CAN", "last visit": "2017-11-08", "marker-color": "#00FA21", "work": true}, "type": "Feature"}, {"geometry": {"coordinates": [-79.0784, 43.0792], "type": "Point"}, "properties": {"city": "Niagara Falls, CAN", "last visit": "2012-01-01", "marker-color": "#00FA21", "work": false}, "type": "Feature"}, {"geometry": {"coordinates": [-121.955, 37.354], "type": "Point"}, "properties": {"city": "Santa Clara, USA", "last visit": "2013-03-18", "marker-color": "#00FA21", "work": false}, "type": "Feature"}, {"geometry": {"coordinates": [-76.48100000000001, 44.23], "type": "Point"}, "properties": {"city": "Kingston, CAN", "last visit": "2012-05-20", "marker-color": "#00FA21", "work": false}, "type": "Feature"}, {"geometry": {"coordinates": [-75.7057, 45.422], "type": "Point"}, "properties": {"city": "Ottawa, CAN", "last visit": "2013-05-22", "marker-color": "#00FA21", "work": false}, "type": "Feature"}, {"geometry": {"coordinates": [-73.58800000000001, 45.50899999999999], "type": "Point"}, "properties": {"city": "Montr\u00e9al, CAN", "last visit": "2017-11-20", "marker-color": "#00FA21", "work": false}, "type": "Feature"}, {"geometry": {"coordinates": [-71.215, 46.812], "type": "Point"}, "properties": {"city": "Qu\u00e9bec, CAN", "last visit": "2012-06-18", "marker-color": "#00FA21", "work": false}, "type": "Feature"}, {"geometry": {"coordinates": [-66.666, 45.945], "type": "Point"}, "properties": {"city": "Fredericton, CAN", "last visit": "2012-06-19", "marker-color": "#00FA21", "work": false}, "type": "Feature"}, {"geometry": {"coordinates": [-63.573, 44.646], "type": "Point"}, "properties": {"city": "Halifax, CAN", "last visit": "2018-07-01", "marker-color": "#00FA21", "work": false}, "type": "Feature"}, {"geometry": {"coordinates": [-63.126999999999995, 46.235], "type": "Point"}, "properties": {"city": "Charlottetown, CAN", "last visit": "2012-06-21", "marker-color": "#00FA21", "work": false}, "type": "Feature"}, {"geometry": {"coordinates": [-58.376999999999995, -34.613], "type": "Point"}, "properties": {"city": "Buenos Aires, ARG", "last visit": "2012-11-19", "marker-color": "#005CFA", "work": false}, "type": "Feature"}, {"geometry": {"coordinates": [-68.404, 18.582], "type": "Point"}, "properties": {"city": "Punta Cana, DOM", "last visit": "2013-05-10", "marker-color": "#00FA21", "work": false}, "type": "Feature"}, {"geometry": {"coordinates": [-83.741, 42.278], "type": "Point"}, "properties": {"city": "Ann Arbor, USA", "last visit": "2013-08-05", "marker-color": "#00FA21", "work": false}, "type": "Feature"}, {"geometry": {"coordinates": [-120.78299999999999, 49.067], "type": "Point"}, "properties": {"city": "Manning Park, CAN", "last visit": "2014-06-20", "marker-color": "#00FA21", "work": false}, "type": "Feature"}, {"geometry": {"coordinates": [-119.455, 49.015], "type": "Point"}, "properties": {"city": "Osoyoos, CAN", "last visit": "2014-06-22", "marker-color": "#00FA21", "work": false}, "type": "Feature"}, {"geometry": {"coordinates": [-119.486, 49.883], "type": "Point"}, "properties": {"city": "Kelowna, CAN", "last visit": "2016-10-13", "marker-color": "#00FA21", "work": false}, "type": "Feature"}, {"geometry": {"coordinates": [-120.53299999999999, 50.177], "type": "Point"}, "properties": {"city": "Monck Park, CAN", "last visit": "2014-06-25", "marker-color": "#00FA21", "work": false}, "type": "Feature"}, {"geometry": {"coordinates": [-52.708999999999996, 47.565], "type": "Point"}, "properties": {"city": "St. John's, CAN", "last visit": "2014-08-04", "marker-color": "#00FA21", "work": false}, "type": "Feature"}, {"geometry": {"coordinates": [-122.12200000000001, 47.674], "type": "Point"}, "properties": {"city": "Redmond, USA", "last visit": "2018-10-12", "marker-color": "#005CFA", "work": true}, "type": "Feature"}, {"geometry": {"coordinates": [-97.743, 30.267], "type": "Point"}, "properties": {"city": "Austin, USA", "last visit": "2016-05-21", "marker-color": "#00FA21", "work": true}, "type": "Feature"}, {"geometry": {"coordinates": [-80.256, 43.54600000000001], "type": "Point"}, "properties": {"city": "Guelph, CAN", "last visit": "2015-06-24", "marker-color": "#00FA21", "work": false}, "type": "Feature"}, {"geometry": {"coordinates": [-80.99, 46.49], "type": "Point"}, "properties": {"city": "Sudbury, CAN", "last visit": "2015-06-25", "marker-color": "#00FA21", "work": false}, "type": "Feature"}, {"geometry": {"coordinates": [-84.78299999999999, 47.983000000000004], "type": "Point"}, "properties": {"city": "Wawa, CAN", "last visit": "2015-06-26", "marker-color": "#00FA21", "work": false}, "type": "Feature"}, {"geometry": {"coordinates": [-89.25, 48.382], "type": "Point"}, "properties": {"city": "Thunder Bay, CAN", "last visit": "2015-06-27", "marker-color": "#00FA21", "work": false}, "type": "Feature"}, {"geometry": {"coordinates": [-97.147, 49.88399999999999], "type": "Point"}, "properties": {"city": "Winnipeg, CAN", "last visit": "2015-06-28", "marker-color": "#00FA21", "work": false}, "type": "Feature"}, {"geometry": {"coordinates": [-104.618, 50.45], "type": "Point"}, "properties": {"city": "Regina, CAN", "last visit": "2015-06-29", "marker-color": "#00FA21", "work": false}, "type": "Feature"}, {"geometry": {"coordinates": [-116.50200000000001, 49.1], "type": "Point"}, "properties": {"city": "Creston, CAN", "last visit": "2015-06-30", "marker-color": "#00FA21", "work": false}, "type": "Feature"}, {"geometry": {"coordinates": [-117.286, 49.5], "type": "Point"}, "properties": {"city": "Nelson, CAN", "last visit": "2017-07-02", "marker-color": "#00FA21", "work": false}, "type": "Feature"}, {"geometry": {"coordinates": [-74.024, 40.78], "type": "Point"}, "properties": {"city": "Union City, USA", "last visit": "2015-11-15", "marker-color": "#00FA21", "work": true}, "type": "Feature"}, {"geometry": {"coordinates": [-72.92649, 41.311209999999996], "type": "Point"}, "properties": {"city": "New Haven, USA", "last visit": "2015-11-14", "marker-color": "#00FA21", "work": true}, "type": "Feature"}, {"geometry": {"coordinates": [-116.1996, 43.6177], "type": "Point"}, "properties": {"city": "Boise, USA", "last visit": "2015-11-28", "marker-color": "#00FA21", "work": false}, "type": "Feature"}, {"geometry": {"coordinates": [-125.906618, 49.152984000000004], "type": "Point"}, "properties": {"city": "Tofino, CAN", "last visit": "2016-02-16", "marker-color": "#00FA21", "work": false}, "type": "Feature"}, {"geometry": {"coordinates": [-125.546345, 48.9416], "type": "Point"}, "properties": {"city": "Ucluelet, CAN", "last visit": "2016-02-15", "marker-color": "#00FA21", "work": false}, "type": "Feature"}, {"geometry": {"coordinates": [-122.17023999999999, 37.42716], "type": "Point"}, "properties": {"city": "Palo Alto, USA", "last visit": "2016-09-10", "marker-color": "#005CFA", "work": true}, "type": "Feature"}, {"geometry": {"coordinates": [-118.244, 34.052], "type": "Point"}, "properties": {"city": "Los Angeles, USA", "last visit": "2017-02-23", "marker-color": "#00FA21", "work": false}, "type": "Feature"}, {"geometry": {"coordinates": [-21.895, 64.135], "type": "Point"}, "properties": {"city": "Reykjavik, ISL", "last visit": "2017-09-06", "marker-color": "#00FA21", "work": false}, "type": "Feature"}, {"geometry": {"coordinates": [4.89, 52.373999999999995], "type": "Point"}, "properties": {"city": "Amsterdam, NLD", "last visit": "2017-09-11", "marker-color": "#00FA21", "work": false}, "type": "Feature"}, {"geometry": {"coordinates": [-1.013, 52.21], "type": "Point"}, "properties": {"city": "Bugbrooke, GBR", "last visit": "2017-09-14", "marker-color": "#00FA21", "work": false}, "type": "Feature"}, {"geometry": {"coordinates": [77.23100000000001, 28.651999999999997], "type": "Point"}, "properties": {"city": "Delhi, IND", "last visit": "2018-02-09", "marker-color": "#00FA21", "work": false}, "type": "Feature"}, {"geometry": {"coordinates": [78.017, 27.183000000000003], "type": "Point"}, "properties": {"city": "Agra, IND", "last visit": "2018-02-07", "marker-color": "#00FA21", "work": false}, "type": "Feature"}, {"geometry": {"coordinates": [77.66, 27.094], "type": "Point"}, "properties": {"city": "Fatehpur Sikri, IND", "last visit": "2018-02-07", "marker-color": "#00FA21", "work": false}, "type": "Feature"}, {"geometry": {"coordinates": [75.788, 26.92], "type": "Point"}, "properties": {"city": "Jaipur, IND", "last visit": "2018-02-11", "marker-color": "#00FA21", "work": false}, "type": "Feature"}, {"geometry": {"coordinates": [73.855, 18.52], "type": "Point"}, "properties": {"city": "Pune, IND", "last visit": "2018-02-17", "marker-color": "#00FA21", "work": false}, "type": "Feature"}, {"geometry": {"coordinates": [-81.695, 41.498999999999995], "type": "Point"}, "properties": {"city": "Cleveland, USA", "last visit": "2018-05-18", "marker-color": "#005CFA", "work": true}, "type": "Feature"}, {"geometry": {"coordinates": [-65.9827952, 45.4485869], "type": "Point"}, "properties": {"city": "Quispamsis, CAN", "last visit": "2018-07-04", "marker-color": "#00FA21", "work": false}, "type": "Feature"}, {"geometry": {"coordinates": [-66.068, 45.273], "type": "Point"}, "properties": {"city": "Saint John, CAN", "last visit": "2018-06-26", "marker-color": "#00FA21", "work": false}, "type": "Feature"}, {"geometry": {"coordinates": [-65.55487480000001, 45.3513012], "type": "Point"}, "properties": {"city": "St. Martins, CAN", "last visit": "2018-06-27", "marker-color": "#00FA21", "work": false}, "type": "Feature"}, {"geometry": {"coordinates": [-64.36773249999999, 45.0885804], "type": "Point"}, "properties": {"city": "Wolfville, CAN", "last visit": "2018-06-29", "marker-color": "#00FA21", "work": false}, "type": "Feature"}, {"geometry": {"coordinates": [-64.3236562, 44.3733126], "type": "Point"}, "properties": {"city": "Lunenburg, CAN", "last visit": "2018-07-01", "marker-color": "#00FA21", "work": false}, "type": "Feature"}, {"geometry": {"coordinates": [-63.9140581, 44.4946417], "type": "Point"}, "properties": {"city": "Peggy\u2019s Cove, CAN", "last visit": "2018-07-01", "marker-color": "#00FA21", "work": false}, "type": "Feature"}, {"geometry": {"coordinates": [-63.2859907, 45.3459669], "type": "Point"}, "properties": {"city": "Truro, CAN", "last visit": "2018-07-02", "marker-color": "#00FA21", "work": false}, "type": "Feature"}, {"geometry": {"coordinates": [-64.59351550000001, 45.8231857], "type": "Point"}, "properties": {"city": "Hopewell Rocks Park, CAN", "last visit": "2018-07-03", "marker-color": "#00FA21", "work": false}, "type": "Feature"}], "type": "FeatureCollection"}