{"type": "FeatureCollection", "features": [{"type": "Feature", "properties": {"marker-color": "#00FA21", "city": "Halifax, CAN", "last visit": "2012-06-20", "stroke": "#000000"}, "geometry": {"type": "Point", "coordinates": [-63.573, 44.646]}}, {"type": "Feature", "properties": {"marker-color": "#00FA21", "city": "Thunder Bay, CAN", "last visit": "2015-06-27", "stroke": "#000000"}, "geometry": {"type": "Point", "coordinates": [-89.25, 48.382]}}, {"type": "Feature", "properties": {"marker-color": "#F2FA00", "city": "Kyoto, JPN", "last visit": "2008-01-01", "stroke": "#000000"}, "geometry": {"type": "Point", "coordinates": [135.75385, 35.02107]}}, {"type": "Feature", "properties": {"marker-color": "#00FA21", "city": "Portland, USA", "last visit": "2016-06-04", "stroke": "#000000"}, "geometry": {"type": "Point", "coordinates": [-122.676, 45.523]}}, {"type": "Feature", "properties": {"marker-color": "#F2FA00", "city": "Osaka, JPN", "last visit": "2008-01-01", "stroke": "#000000"}, "geometry": {"type": "Point", "coordinates": [135.50218, 34.693740000000005]}}, {"type": "Feature", "properties": {"marker-color": "#00FA21", "city": "Nelson, CAN", "last visit": "2015-07-01", "stroke": "#000000"}, "geometry": {"type": "Point", "coordinates": [-117.286, 49.5]}}, {"type": "Feature", "properties": {"marker-color": "#00FA21", "city": "Guelph, CAN", "last visit": "2015-06-24", "stroke": "#000000"}, "geometry": {"type": "Point", "coordinates": [-80.256, 43.54600000000001]}}, {"type": "Feature", "properties": {"marker-color": "#00FA21", "city": "Edinburgh, GBR", "last visit": "2010-07-31", "stroke": "#000000"}, "geometry": {"type": "Point", "coordinates": [-3.196, 55.952]}}, {"type": "Feature", "properties": {"marker-color": "#00FA21", "city": "Monterey, USA", "last visit": "2011-05-01", "stroke": "#000000"}, "geometry": {"type": "Point", "coordinates": [-121.895, 36.6]}}, {"type": "Feature", "properties": {"marker-color": "#00FA21", "city": "Boise, USA", "last visit": "2015-11-28", "stroke": "#000000"}, "geometry": {"type": "Point", "coordinates": [-116.1996, 43.6177]}}, {"type": "Feature", "properties": {"marker-color": "#00FA21", "city": "Ucluelet, CAN", "last visit": "2016-02-15", "stroke": "#000000"}, "geometry": {"type": "Point", "coordinates": [-125.546345, 48.9416]}}, {"type": "Feature", "properties": {"marker-color": "#00FA21", "city": "Kelowna, CAN", "last visit": "2014-06-24", "stroke": "#000000"}, "geometry": {"type": "Point", "coordinates": [-119.486, 49.883]}}, {"type": "Feature", "properties": {"marker-color": "#F2FA00", "city": "Shoreham-by-Sea, GBR", "last visit": "2006-07-01", "stroke": "#000000"}, "geometry": {"type": "Point", "coordinates": [-0.27399999999999997, 50.833999999999996]}}, {"type": "Feature", "properties": {"marker-color": "#F2FA00", "city": "Kentville, CAN", "last visit": "2001-07-01", "stroke": "#000000"}, "geometry": {"type": "Point", "coordinates": [-64.49600000000001, 45.077]}}, {"type": "Feature", "properties": {"marker-color": "#F2FA00", "city": "Hiroshima, JPN", "last visit": "2008-01-01", "stroke": "#000000"}, "geometry": {"type": "Point", "coordinates": [132.45937, 35.02107]}}, {"type": "Feature", "properties": {"marker-color": "#00FA21", "city": "Niagara Falls, CAN", "last visit": "2012-01-01", "stroke": "#000000"}, "geometry": {"type": "Point", "coordinates": [-79.0784, 43.0792]}}, {"type": "Feature", "properties": {"marker-color": "#005CFA", "city": "Addison, USA", "last visit": "2007-03-01", "stroke": "#000000"}, "geometry": {"type": "Point", "coordinates": [-96.829, 32.961999999999996]}}, {"type": "Feature", "properties": {"marker-color": "#005CFA", "city": "Charlottesville, USA", "last visit": "2009-03-07", "stroke": "#000000"}, "geometry": {"type": "Point", "coordinates": [-78.477, 38.029]}}, {"type": "Feature", "properties": {"marker-color": "#00FA21", "city": "Toronto, CAN", "last visit": "2015-11-08", "stroke": "#000000"}, "geometry": {"type": "Point", "coordinates": [-79.416, 43.7]}}, {"type": "Feature", "properties": {"marker-color": "#00FA21", "city": "Santa Clara, USA", "last visit": "2013-03-18", "stroke": "#000000"}, "geometry": {"type": "Point", "coordinates": [-121.955, 37.354]}}, {"type": "Feature", "properties": {"marker-color": "#005CFA", "city": "Brussels, BEL", "last visit": "2008-04-07", "stroke": "#000000"}, "geometry": {"type": "Point", "coordinates": [4.349, 50.85]}}, {"type": "Feature", "properties": {"marker-color": "#00FA21", "city": "Sudbury, CAN", "last visit": "2015-06-25", "stroke": "#000000"}, "geometry": {"type": "Point", "coordinates": [-80.99, 46.49]}}, {"type": "Feature", "properties": {"marker-color": "#00FA21", "city": "Montr\u00e9al, CAN", "last visit": "2015-04-16", "stroke": "#000000"}, "geometry": {"type": "Point", "coordinates": [-73.58800000000001, 45.50899999999999]}}, {"type": "Feature", "properties": {"marker-color": "#00FA21", "city": "St. John's, CAN", "last visit": "2014-08-04", "stroke": "#000000"}, "geometry": {"type": "Point", "coordinates": [-52.708999999999996, 47.565]}}, {"type": "Feature", "properties": {"marker-color": "#00FA21", "city": "Calgary, CAN", "last visit": "2015-06-30", "stroke": "#000000"}, "geometry": {"type": "Point", "coordinates": [-114.085, 51.05]}}, {"type": "Feature", "properties": {"marker-color": "#00FA21", "city": "Kingston, CAN", "last visit": "2012-05-20", "stroke": "#000000"}, "geometry": {"type": "Point", "coordinates": [-76.48100000000001, 44.23]}}, {"type": "Feature", "properties": {"marker-color": "#005CFA", "city": "Oxford, GBR", "last visit": "2002-01-01", "stroke": "#000000"}, "geometry": {"type": "Point", "coordinates": [-1.256, 51.751999999999995]}}, {"type": "Feature", "properties": {"marker-color": "#F2FA00", "city": "Paris, FRA", "last visit": "2010-01-01", "stroke": "#000000"}, "geometry": {"type": "Point", "coordinates": [2.349, 48.853]}}, {"type": "Feature", "properties": {"marker-color": "#00FA21", "city": "Mountain View, USA", "last visit": "2013-10-11", "stroke": "#000000"}, "geometry": {"type": "Point", "coordinates": [-122.084, 37.385999999999996]}}, {"type": "Feature", "properties": {"marker-color": "#F2FA00", "city": "Nara, JPN", "last visit": "2008-01-01", "stroke": "#000000"}, "geometry": {"type": "Point", "coordinates": [135.80485, 34.68505]}}, {"type": "Feature", "properties": {"marker-color": "#F2FA00", "city": "Edmonton, CAN", "last visit": "2005-07-01", "stroke": "#000000"}, "geometry": {"type": "Point", "coordinates": [-113.469, 53.55]}}, {"type": "Feature", "properties": {"marker-color": "#005CFA", "city": "Yosemite Valley, USA", "last visit": "2003-07-01", "stroke": "#000000"}, "geometry": {"type": "Point", "coordinates": [-119.57799999999999, 37.741]}}, {"type": "Feature", "properties": {"marker-color": "#00FA21", "city": "Stirling, GBR", "last visit": "2010-07-28", "stroke": "#000000"}, "geometry": {"type": "Point", "coordinates": [-3.937, 56.119]}}, {"type": "Feature", "properties": {"marker-color": "#00FA21", "city": "New Haven, USA", "last visit": "2015-11-14", "stroke": "#000000"}, "geometry": {"type": "Point", "coordinates": [-72.92649, 41.311209999999996]}}, {"type": "Feature", "properties": {"marker-color": "#00FA21", "city": "Anaheim, USA", "last visit": "2012-03-06", "stroke": "#000000"}, "geometry": {"type": "Point", "coordinates": [-117.915, 33.835]}}, {"type": "Feature", "properties": {"marker-color": "#005CFA", "city": "Mammoth Lakes, USA", "last visit": "2003-07-01", "stroke": "#000000"}, "geometry": {"type": "Point", "coordinates": [-118.97200000000001, 37.649]}}, {"type": "Feature", "properties": {"marker-color": "#F2FA00", "city": "Takasaki, JPN", "last visit": "2008-01-01", "stroke": "#000000"}, "geometry": {"type": "Point", "coordinates": [138.88578, 36.3410271]}}, {"type": "Feature", "properties": {"marker-color": "#00FA21", "city": "Winnipeg, CAN", "last visit": "2015-06-28", "stroke": "#000000"}, "geometry": {"type": "Point", "coordinates": [-97.147, 49.88399999999999]}}, {"type": "Feature", "properties": {"marker-color": "#F2FA00", "city": "Summerside, CAN", "last visit": "2001-07-01", "stroke": "#000000"}, "geometry": {"type": "Point", "coordinates": [-63.788000000000004, 46.396]}}, {"type": "Feature", "properties": {"marker-color": "#00FA21", "city": "Montclair, USA", "last visit": "2015-04-07", "stroke": "#000000"}, "geometry": {"type": "Point", "coordinates": [-74.211, 40.826]}}, {"type": "Feature", "properties": {"marker-color": "#00FA21", "city": "Manning Park, CAN", "last visit": "2014-06-20", "stroke": "#000000"}, "geometry": {"type": "Point", "coordinates": [-120.78299999999999, 49.067]}}, {"type": "Feature", "properties": {"marker-color": "#00FA21", "city": "Tofino, CAN", "last visit": "2016-02-16", "stroke": "#000000"}, "geometry": {"type": "Point", "coordinates": [-125.906618, 49.152984000000004]}}, {"type": "Feature", "properties": {"marker-color": "#00FA21", "city": "Bowen Island, CAN", "last visit": "2011-07-04", "stroke": "#000000"}, "geometry": {"type": "Point", "coordinates": [-123.366, 49.378]}}, {"type": "Feature", "properties": {"marker-color": "#00FA21", "city": "Monck Park, CAN", "last visit": "2014-06-25", "stroke": "#000000"}, "geometry": {"type": "Point", "coordinates": [-120.53299999999999, 50.177]}}, {"type": "Feature", "properties": {"marker-color": "#00FA21", "city": "Qu\u00e9bec, CAN", "last visit": "2012-06-18", "stroke": "#000000"}, "geometry": {"type": "Point", "coordinates": [-71.215, 46.812]}}, {"type": "Feature", "properties": {"marker-color": "#00FA21", "city": "Austin, USA", "last visit": "2016-05-21", "stroke": "#000000"}, "geometry": {"type": "Point", "coordinates": [-97.743, 30.267]}}, {"type": "Feature", "properties": {"marker-color": "#005CFA", "city": "Rosemont, USA", "last visit": "2008-03-20", "stroke": "#000000"}, "geometry": {"type": "Point", "coordinates": [-87.885, 41.995]}}, {"type": "Feature", "properties": {"marker-color": "#00FA21", "city": "Langley, USA", "last visit": "2015-09-08", "stroke": "#000000"}, "geometry": {"type": "Point", "coordinates": [-122.406, 48.04]}}, {"type": "Feature", "properties": {"marker-color": "#F2FA00", "city": "Geneva, CHE", "last visit": "2010-01-01", "stroke": "#000000"}, "geometry": {"type": "Point", "coordinates": [6.146, 46.202]}}, {"type": "Feature", "properties": {"marker-color": "#F2FA00", "city": "Liverpool, GBR", "last visit": "2010-01-01", "stroke": "#000000"}, "geometry": {"type": "Point", "coordinates": [-2.978, 53.411]}}, {"type": "Feature", "properties": {"marker-color": "#F2FA00", "city": "Tokyo, JPN", "last visit": "2008-01-01", "stroke": "#000000"}, "geometry": {"type": "Point", "coordinates": [139.69171, 35.6895]}}, {"type": "Feature", "properties": {"marker-color": "#00FA21", "city": "Lancaster, GBR", "last visit": "2010-07-26", "stroke": "#000000"}, "geometry": {"type": "Point", "coordinates": [-2.8, 54.04600000000001]}}, {"type": "Feature", "properties": {"marker-color": "#00FA21", "city": "Atlanta, USA", "last visit": "2011-08-16", "stroke": "#000000"}, "geometry": {"type": "Point", "coordinates": [-84.38799999999999, 33.749]}}, {"type": "Feature", "properties": {"marker-color": "#F2FA00", "city": "Digby, CAN", "last visit": "2001-07-01", "stroke": "#000000"}, "geometry": {"type": "Point", "coordinates": [-65.759, 44.622]}}, {"type": "Feature", "properties": {"marker-color": "#00FA21", "city": "Wawa, CAN", "last visit": "2015-06-26", "stroke": "#000000"}, "geometry": {"type": "Point", "coordinates": [-84.78299999999999, 47.983000000000004]}}, {"type": "Feature", "properties": {"marker-color": "#00FA21", "city": "Las Vegas, USA", "last visit": "2009-08-01", "stroke": "#000000"}, "geometry": {"type": "Point", "coordinates": [-115.137, 36.175]}}, {"type": "Feature", "properties": {"marker-color": "#00FA21", "city": "Regina, CAN", "last visit": "2015-06-29", "stroke": "#000000"}, "geometry": {"type": "Point", "coordinates": [-104.618, 50.45]}}, {"type": "Feature", "properties": {"marker-color": "#00FA21", "city": "Union City, USA", "last visit": "2015-11-15", "stroke": "#000000"}, "geometry": {"type": "Point", "coordinates": [-74.024, 40.78]}}, {"type": "Feature", "properties": {"marker-color": "#00FA21", "city": "Chicago, USA", "last visit": "2012-10-09", "stroke": "#000000"}, "geometry": {"type": "Point", "coordinates": [-87.65, 41.85]}}, {"type": "Feature", "properties": {"marker-color": "#005CFA", "city": "York, GBR", "last visit": "2002-01-01", "stroke": "#000000"}, "geometry": {"type": "Point", "coordinates": [-1.083, 53.958]}}, {"type": "Feature", "properties": {"marker-color": "#F2FA00", "city": "Annapolis Royal, CAN", "last visit": "2001-07-01", "stroke": "#000000"}, "geometry": {"type": "Point", "coordinates": [-65.518, 44.743]}}, {"type": "Feature", "properties": {"marker-color": "#005CFA", "city": "Buenos Aires, ARG", "last visit": "2012-11-19", "stroke": "#000000"}, "geometry": {"type": "Point", "coordinates": [-58.376999999999995, -34.613]}}, {"type": "Feature", "properties": {"marker-color": "#00FA21", "city": "Charlottetown, CAN", "last visit": "2012-06-21", "stroke": "#000000"}, "geometry": {"type": "Point", "coordinates": [-63.126999999999995, 46.235]}}, {"type": "Feature", "properties": {"marker-color": "#F2FA00", "city": "Shediac, CAN", "last visit": "2001-07-01", "stroke": "#000000"}, "geometry": {"type": "Point", "coordinates": [-64.541, 46.22]}}, {"type": "Feature", "properties": {"marker-color": "#00FA21", "city": "Victoria, CAN", "last visit": "2016-08-02", "stroke": "#000000"}, "geometry": {"type": "Point", "coordinates": [-123.3703, 48.4195]}}, {"type": "Feature", "properties": {"marker-color": "#00FA21", "city": "Osoyoos, CAN", "last visit": "2014-06-22", "stroke": "#000000"}, "geometry": {"type": "Point", "coordinates": [-119.455, 49.015]}}, {"type": "Feature", "properties": {"marker-color": "#005CFA", "city": "Palo Alto, USA", "last visit": "2016-09-10", "stroke": "#000000"}, "geometry": {"type": "Point", "coordinates": [-122.17023999999999, 37.42716]}}, {"type": "Feature", "properties": {"marker-color": "#00FA21", "city": "Sackville, CAN", "last visit": "2012-06-22", "stroke": "#000000"}, "geometry": {"type": "Point", "coordinates": [-64.385, 45.919]}}, {"type": "Feature", "properties": {"marker-color": "#00FA21", "city": "Ottawa, CAN", "last visit": "2013-05-22", "stroke": "#000000"}, "geometry": {"type": "Point", "coordinates": [-75.7057, 45.422]}}, {"type": "Feature", "properties": {"marker-color": "#F2FA00", "city": "Manchester, GBR", "last visit": "2010-01-01", "stroke": "#000000"}, "geometry": {"type": "Point", "coordinates": [-2.237, 53.481]}}, {"type": "Feature", "properties": {"marker-color": "#00FA21", "city": "Roseville, USA", "last visit": "2011-10-30", "stroke": "#000000"}, "geometry": {"type": "Point", "coordinates": [-121.288, 38.751999999999995]}}, {"type": "Feature", "properties": {"marker-color": "#00FA21", "city": "Fredericton, CAN", "last visit": "2012-06-19", "stroke": "#000000"}, "geometry": {"type": "Point", "coordinates": [-66.666, 45.945]}}, {"type": "Feature", "properties": {"marker-color": "#F2FA00", "city": "Atlantic City, USA", "last visit": "2004-07-01", "stroke": "#000000"}, "geometry": {"type": "Point", "coordinates": [-74.423, 39.364000000000004]}}, {"type": "Feature", "properties": {"marker-color": "#00FA21", "city": "Brighton, GBR", "last visit": "2006-07-01", "stroke": "#000000"}, "geometry": {"type": "Point", "coordinates": [-0.139, 50.828]}}, {"type": "Feature", "properties": {"marker-color": "#00FA21", "city": "Ann Arbor, USA", "last visit": "2013-08-05", "stroke": "#000000"}, "geometry": {"type": "Point", "coordinates": [-83.741, 42.278]}}, {"type": "Feature", "properties": {"marker-color": "#F2FA00", "city": "Prague, CZE", "last visit": "2010-01-01", "stroke": "#000000"}, "geometry": {"type": "Point", "coordinates": [14.421, 50.088]}}, {"type": "Feature", "properties": {"marker-color": "#F2FA00", "city": "Moncton, CAN", "last visit": "2001-07-01", "stroke": "#000000"}, "geometry": {"type": "Point", "coordinates": [-64.796, 46.095]}}, {"type": "Feature", "properties": {"marker-color": "#00FA21", "city": "Meridian, USA", "last visit": "2015-11-30", "stroke": "#000000"}, "geometry": {"type": "Point", "coordinates": [-116.39200000000001, 43.611999999999995]}}, {"type": "Feature", "properties": {"marker-color": "#00FA21", "city": "London, GBR", "last visit": "2010-01-01", "stroke": "#000000"}, "geometry": {"type": "Point", "coordinates": [-0.126, 51.50899999999999]}}, {"type": "Feature", "properties": {"marker-color": "#00FA21", "city": "Glasgow, GBR", "last visit": "2010-07-29", "stroke": "#000000"}, "geometry": {"type": "Point", "coordinates": [-4.258, 55.865]}}, {"type": "Feature", "properties": {"marker-color": "#005CFA", "city": "Birmingham, GBR", "last visit": "2010-07-24", "stroke": "#000000"}, "geometry": {"type": "Point", "coordinates": [-1.9, 52.481]}}, {"type": "Feature", "properties": {"marker-color": "#00FA21", "city": "Vancouver, CAN", "last visit": "2015-01-02", "stroke": "#000000"}, "geometry": {"type": "Point", "coordinates": [-123.119, 49.25]}}, {"type": "Feature", "properties": {"marker-color": "#F2FA00", "city": "Annaka, JPN", "last visit": "2008-01-01", "stroke": "#000000"}, "geometry": {"type": "Point", "coordinates": [138.9, 36.31667]}}, {"type": "Feature", "properties": {"marker-color": "#F2FA00", "city": "Havana, CUB", "last visit": "2010-02-01", "stroke": "#000000"}, "geometry": {"type": "Point", "coordinates": [-82.383, 23.133000000000003]}}, {"type": "Feature", "properties": {"marker-color": "#00FA21", "city": "Creston, CAN", "last visit": "2015-06-30", "stroke": "#000000"}, "geometry": {"type": "Point", "coordinates": [-116.50200000000001, 49.1]}}, {"type": "Feature", "properties": {"marker-color": "#F2FA00", "city": "Barcelona, ESP", "last visit": "2010-01-01", "stroke": "#000000"}, "geometry": {"type": "Point", "coordinates": [2.1590000000000003, 41.388999999999996]}}, {"type": "Feature", "properties": {"marker-color": "#00FA21", "city": "Seattle, USA", "last visit": "2014-08-25", "stroke": "#000000"}, "geometry": {"type": "Point", "coordinates": [-122.33200000000001, 47.606]}}, {"type": "Feature", "properties": {"marker-color": "#F2FA00", "city": "Yarmouth, CAN", "last visit": "2001-07-01", "stroke": "#000000"}, "geometry": {"type": "Point", "coordinates": [-66.116, 43.833]}}, {"type": "Feature", "properties": {"marker-color": "#F2FA00", "city": "Ely, GBR", "last visit": "2006-07-01", "stroke": "#000000"}, "geometry": {"type": "Point", "coordinates": [0.262, 52.4]}}, {"type": "Feature", "properties": {"marker-color": "#005CFA", "city": "Washington, D.C., USA", "last visit": "2005-03-01", "stroke": "#000000"}, "geometry": {"type": "Point", "coordinates": [-77.036, 38.895]}}, {"type": "Feature", "properties": {"marker-color": "#005CFA", "city": "Raleigh, USA", "last visit": "2010-05-01", "stroke": "#000000"}, "geometry": {"type": "Point", "coordinates": [-78.639, 35.772]}}, {"type": "Feature", "properties": {"marker-color": "#005CFA", "city": "Redmond, USA", "last visit": "2016-10-05", "stroke": "#000000"}, "geometry": {"type": "Point", "coordinates": [-122.12200000000001, 47.674]}}, {"type": "Feature", "properties": {"marker-color": "#F2FA00", "city": "Grenoble, FRA", "last visit": "2010-01-01", "stroke": "#000000"}, "geometry": {"type": "Point", "coordinates": [5.7170000000000005, 45.167]}}, {"type": "Feature", "properties": {"marker-color": "#00FA21", "city": "New York, USA", "last visit": "2015-11-11", "stroke": "#000000"}, "geometry": {"type": "Point", "coordinates": [-74.006, 40.714]}}, {"type": "Feature", "properties": {"marker-color": "#005CFA", "city": "Ghent, BEL", "last visit": "2008-04-01", "stroke": "#000000"}, "geometry": {"type": "Point", "coordinates": [3.717, 51.05]}}, {"type": "Feature", "properties": {"marker-color": "#00FA21", "city": "San Francisco, USA", "last visit": "2016-09-11", "stroke": "#000000"}, "geometry": {"type": "Point", "coordinates": [-122.419, 37.775]}}, {"type": "Feature", "properties": {"marker-color": "#F2FA00", "city": "Amherst, CAN", "last visit": "2001-07-01", "stroke": "#000000"}, "geometry": {"type": "Point", "coordinates": [-64.199, 45.833]}}, {"type": "Feature", "properties": {"marker-color": "#005CFA", "city": "Pittsburgh, USA", "last visit": "2008-07-25", "stroke": "#000000"}, "geometry": {"type": "Point", "coordinates": [-79.99600000000001, 40.441]}}, {"type": "Feature", "properties": {"marker-color": "#00FA21", "city": "Punta Cana, DOM", "last visit": "2013-05-10", "stroke": "#000000"}, "geometry": {"type": "Point", "coordinates": [-68.404, 18.582]}}]}